~Version ---------------------------------------------------
VERS.   2.0 : CWLS log ASCII Standard -VERSION 2.0
WRAP.    NO : One line per depth step
DLM . SPACE : Column Data Section Delimiter
~Well ------------------------------------------------------
STRT.FEET  8456.0 : START DEPTH
STOP.FEET  8628.0 : STOP DEPTH
STEP.FEET 0.50000 : STEP
NULL.    -9999.25 : NULL VALUE
COMP.             : COMPANY
WELL.       HW-26 : 
FLD .       COSTA : 
LOC .             : LOCATION
PROV.             : PROVINCE
CNTY.             : COUNTY
STAT.             : STATE
CTRY.             : COUNTRY
SRVC.             : SERVICE COMPANY
DATE.             : DATE
UWI .    12345678 : 
API .       HW-26 : 
~Curve Information -----------------------------------------
DEPT.FEET  : 
PHIT.V/V   : 
PERM.MD    : 
G1  .      : 
G2  .      : 
PD1 .PSI   : 
PD2 .PSI   : 
BV1 .%     : 
BV2 .%     : 
~Params ----------------------------------------------------
~Other -----------------------------------------------------
~ASCII -----------------------------------------------------
# ...
 8536.00000    0.07750    0.05999    2.04489    0.10000  581.98193  650.00000   14.25116    0.00000
 8536.50000    0.08863    0.07000    1.39329    0.10000  412.47382  650.00000   12.99414    0.00000
 8537.00000    0.10037    0.10000    0.39965    0.10000  412.59113  650.00000   12.82548    0.00000
 8537.50000    0.10146    0.13000    0.43181    0.10000  380.11276  650.00000   12.47553    0.00000
 8538.00000    0.12830    0.22001    0.34275    0.10000  213.60646  650.00000   15.52544    0.00000
 8538.50000    0.15717    0.30013    0.23452    0.10000  193.71803  650.00000   17.48413    0.00000
 8539.00000    0.17600    0.66055    0.19182    0.10000  181.43652  650.00000   20.48782    0.00000
 8539.50000    0.19232    1.02996    0.21806    0.10000  169.33585  650.00000   21.88634    0.00000
 8540.00000    0.20231    1.21003    0.26607    0.10000  179.12553  650.00000   22.50837    0.00000
 8540.50000    0.21197    1.32055    0.22059    0.10000  118.99113  650.00000   20.27763    0.91964
 8541.00000    0.20231    1.37006    0.23623    0.10000  162.36388  650.00000   22.28817    0.00000
 8541.50000    0.19347    1.36002    0.21163    0.10000  154.21896  650.00000   21.77270    0.00000
 8542.00000    0.18646    1.25120    0.18929    0.10000  148.67659  650.00000   21.17133    0.00000
 8542.50000    0.18577    1.14035    0.19112    0.10000  149.22543  650.00000   21.19672    0.00000
 8543.00000    0.17516    1.02998    0.17060    0.10000  159.79161  650.00000   20.29188    0.00000
 8543.50000    0.17516    0.90999    0.18519    0.10000  174.43771  650.00000   20.39285    0.00000
 8544.00000    0.18528    1.37002    0.18220    0.10000  147.07239  650.00000   20.97084    0.00000
 8544.50000    0.17600    1.83005    0.20953    0.10000  134.98726  650.00000   20.27941    0.00000
 8545.00000    0.17516    2.21031    0.28255    0.10000  111.68044  650.00000   19.89788    0.00000
 8545.50000    0.18528    2.81020    0.15639    0.10000  122.27986  650.00000   20.84981    0.00000
 8546.00000    0.18480    3.64017    0.17778    0.10000  110.14487  650.00000   21.11452    0.00000
 8546.50000    0.18480    4.47000    0.20607    0.10000   88.96323  650.00000   21.61575    0.00000
 8547.00000    0.16902    4.95037    0.48670    0.10000   49.10744  650.00000   19.47723    0.00000
 8547.50000    0.16677    4.92003    0.52296    0.10000   44.67167  650.00000   19.36573    0.00000
 8548.00000    0.15631    2.58038    0.50759    0.10000   60.30328  650.00000   19.14328    0.00000
 8548.50000    0.13460    0.23000    0.32473    0.10000  169.38013  650.00000   15.88192    0.00000
 8549.00000    0.11695    0.20002    0.39267    0.10000  232.64320  650.00000   14.95267    0.00000
 8549.50000    0.11586    0.18009    0.39726    0.10000  239.04970  650.00000   14.87285    0.00000
 8550.00000    0.11586    0.16013    0.39980    0.10000  245.05124  650.00000   14.82854    0.00000
 8550.50000    0.11834    0.16001    0.39316    0.10000  242.46370  650.00000   14.93729    0.00000
 8551.00000    0.13574    0.20002    0.33289    0.10000  215.13271  650.00000   15.69773    0.00000
 8551.50000    0.13656    0.19350    0.33197    0.10000  217.95015  650.00000   15.69972    0.00000
 8552.00000    0.13204    1.69166    0.51277    0.10000   82.96175  650.00000   15.49518    0.00000
 8552.50000    0.11672    2.16239    0.48860    0.10000   51.71186  650.00000   14.10413    0.00000
 8553.00000    0.10639    0.99040    0.47142    0.10000   55.42572  650.00000   12.44351    0.00000
 8553.50000    0.10146    1.14773    0.47238    0.10000   57.71321  650.00000   12.29084    0.00000
 8554.00000    0.10146    0.55001    0.35413    0.10000   66.67664  650.00000   11.68626    0.00000
 8554.50000    0.10163    0.13002    0.43176    0.10000  379.56204  650.00000   12.48526    0.00000
 8555.00000    0.10352    1.68993    0.49777    0.10000   59.78611  650.00000   12.67763    0.00000
 8555.50000    0.11863    2.84956    0.80672    0.10000   41.01302  650.00000   16.43447    0.00000
 8556.00000    0.15312    1.88998    0.47473    0.10000   66.92645  650.00000   19.18183    0.00000
 8556.50000    0.16677    0.94000    0.20424    0.10000  163.29007  650.00000   19.25805    0.00000
 8557.00000    0.17138    0.63004    0.21111    0.10000  166.07228  650.00000   19.23191    0.00000
 8557.50000    0.15979    0.66004    0.21274    0.10000  167.51439  650.00000   18.52185    0.00000
 8558.00000    0.13574    0.48992    0.36688    0.10000  141.61794  650.00000   16.35549    0.00000
 8558.50000    0.11793    0.29000    0.34063    0.10000  152.66452  650.00000   15.37914    0.00000
 8559.00000    0.11561    0.16000    0.40049    0.10000  245.37207  650.00000   14.81731    0.00000
 8559.50000    0.10639    0.06000    0.44008    0.10000  412.93359  650.00000   12.75900    0.00000
 8560.00000    0.11586    0.10001    0.41468    0.10000  269.41656  650.00000   14.58322    0.00000
 8560.50000    0.11695    0.25002    0.38998    0.10000  221.99539  650.00000   15.00591    0.00000
 8561.00000    0.14470    0.52005    0.25459    0.10000  167.08897  650.00000   16.57852    0.00000
 8561.50000    0.15717    0.79011    0.25162    0.10000  142.16150  650.00000   18.20451    0.00000
 8562.00000    0.17286    0.89000    0.20207    0.10000  162.91084  650.00000   19.52837    0.00000
 8562.50000    0.17600    0.97018    0.17210    0.10000  160.63867  650.00000   20.32469    0.00000
 8563.00000    0.17430    0.97999    0.17075    0.10000  160.89876  650.00000   20.28182    0.00000
 8563.50000    0.15873    0.91002    0.25385    0.10000  138.41693  650.00000   18.41500    0.00000
 8564.00000    0.13350    0.50999    0.33251    0.10000  144.49670  650.00000   15.82536    0.00000
 8564.50000    0.11793    0.24000    0.38801    0.10000  222.82259  650.00000   15.03957    0.00000
 8565.00000    0.11793    0.25000    0.33894    0.10000  157.11513  650.00000   15.41768    0.00000
 8565.50000    0.13460    0.26000    0.32792    0.10000  161.16353  650.00000   15.92999    0.00000
 8566.00000    0.15505    0.41002    0.20424    0.10000  186.66837  650.00000   17.13810    0.00000
 8566.50000    0.15631    0.46063    0.20906    0.10000  184.09880  650.00000   17.25827    0.00000
 8567.00000    0.12934    0.39003    0.33633    0.10000  147.70901  650.00000   15.76260    0.00000
 8567.50000    0.10352    0.32001    0.36760    0.10000  116.79256  650.00000   13.39606    0.00000
 8568.00000    0.10037    3.59296    0.55248    0.10000   47.14005  650.00000   13.62347    0.00000
 8568.50000    0.08863    0.14007    0.49665    0.10000  362.63742  650.00000    9.29936    0.00000
 8569.00000    0.10146    0.98591    0.46161    0.10000   56.40275  650.00000   12.15995    0.00000
 8569.50000    0.11561    2.19055    0.44865    0.10000   52.05487  650.00000   13.93991    0.00000
 8570.00000    0.13885    0.30133    0.33103    0.10000  150.65981  650.00000   16.12721    0.00000
 8570.50000    0.15979    0.44003    0.21380    0.10000  182.70737  650.00000   17.40367    0.00000
 8571.00000    0.17430    0.66002    0.18977    0.10000  181.38696  650.00000   20.40756    0.00000
 8571.50000    0.17431    0.78006    0.18749    0.10000  178.18037  650.00000   20.39673    0.00000
 8572.00000    0.17286    0.71009    0.20855    0.10000  165.17560  650.00000   19.39196    0.00000
 8572.50000    0.14615    0.65001    0.25459    0.10000  165.50565  650.00000   16.58560    0.00000
 8573.00000    0.12728    0.38000    0.33634    0.10000  148.74153  650.00000   15.66638    0.00000
 8573.50000    0.11561    0.20999    0.39523    0.10000  231.66261  650.00000   14.91034    0.00000
 8574.00000    0.10639    0.16001    0.42417    0.10000  256.60309  650.00000   14.43195    0.00000
 8574.50000    0.11672    0.11000    0.40824    0.10000  263.24496  650.00000   14.68658    0.00000
 8575.00000    0.12934    0.24002    0.32987    0.10000  165.37759  650.00000   15.75773    0.00000
 8575.50000    0.13204    0.39999    0.33838    0.10000  145.25749  650.00000   15.90839    0.00000
