~Version ---------------------------------------------------
VERS.   2.0 : CWLS log ASCII Standard -VERSION 2.0
WRAP.    NO : One line per depth step
DLM . SPACE : Column Data Section Delimiter
~Well ------------------------------------------------------
STRT.FEET  8456.0 : START DEPTH
STOP.FEET  8628.0 : STOP DEPTH
STEP.FEET 0.50000 : STEP
NULL.    -9999.25 : NULL VALUE
COMP.             : COMPANY
WELL.       HW-26 : 
FLD .       COSTA : 
LOC .             : LOCATION
PROV.             : PROVINCE
CNTY.             : COUNTY
STAT.             : STATE
CTRY.             : COUNTRY
SRVC.             : SERVICE COMPANY
DATE.             : DATE
UWI .    12345678 : 
API .       HW-26 : 
~Curve Information -----------------------------------------
DEPT.FEET  : 
PHIT.V/V   : 
PERM.MD    : 
G1  .      : 
G2  .      : 
PD1 .PSI   : 
PD2 .PSI   : 
BV1 .%     : 
BV2 .%     : 
~Params ----------------------------------------------------
~Other -----------------------------------------------------
~ASCII -----------------------------------------------------
# ...
 8496.00000    0.14615    1.15026    0.31270    0.10000  117.25950  650.00000   17.17316    0.00000
 8496.50000    0.13656    1.14984    0.45641    0.10000   98.93115  650.00000   15.63762    0.00000
 8497.00000    0.13460    0.64999    0.40518    0.10000  113.82805  650.00000   15.87699    0.00000
 8497.50000    0.12934    0.45001    0.33603    0.10000  145.42773  650.00000   15.70105    0.00000
 8498.00000    0.13460    1.79989    0.66516    0.10000   46.84135  650.00000   16.92477    0.00000
 8498.50000    0.13574    4.45848    0.63674    0.10000   22.68565  650.00000   17.18888    0.00000
 8499.00000    0.14557    9.64831    0.53230    0.10000   19.67185  650.00000   16.11300    0.00000
 8499.50000    0.13656   12.87822    0.36453    0.10000   26.12226  650.00000   13.98188    0.00000
 8500.00000    0.13492    5.90860    0.59365    0.10000   22.19279  650.00000   16.82989    0.00000
 8500.50000    0.13350    1.21998    0.47243    0.10000   93.41393  650.00000   15.54937    0.00000
 8501.00000    0.13574    0.99999    0.44404    0.10000  102.24094  650.00000   15.67046    0.00000
 8501.50000    0.13574    0.76002    0.41510    0.10000  110.96819  650.00000   15.81028    0.00000
 8502.00000    0.13460    0.49006    0.36998    0.10000  141.61411  650.00000   16.33844    0.00000
 8502.50000    0.13574    0.61008    0.37399    0.10000  142.17227  650.00000   16.29111    0.00000
 8503.00000    0.14524    2.76711    0.65937    0.10000   21.53649  650.00000   17.61067    0.00000
 8503.50000    0.15631    3.58906    0.58180    0.10000   37.85664  650.00000   19.17902    0.00000
 8504.00000    0.14557    1.79984    0.63039    0.10000   61.40892  650.00000   17.37812    0.00000
 8504.50000    0.14557    0.90990    0.35279    0.10000  126.45770  650.00000   16.81117    0.00000
 8505.00000    0.14557    0.90995    0.35279    0.10000  126.45586  650.00000   16.81118    0.00000
 8505.50000    0.13656    0.84007    0.42234    0.10000  108.92282  650.00000   15.77388    0.00000
 8506.00000    0.13137    0.43018    0.33678    0.10000  145.23055  650.00000   15.83652    0.00000
 8506.50000    0.10421    0.23000    0.43403    0.10000  215.09569  650.00000   13.05593    0.00000
 8507.00000    0.07642    0.21991    0.39931    0.10000  383.78574  650.00000    7.92751    0.00000
 8507.50000    0.05808    0.19923    0.71746    0.10000  687.22528  650.00000    9.09458    0.00000
 8508.00000    0.05824    0.15913    1.77953    0.10000  719.17505  650.00000   12.91126    0.00000
 8508.50000    0.05886    0.12000    2.07432    0.10000  691.29443  650.00000   13.98402    0.00000
 8509.00000    0.06932    0.15994    0.79319    0.10000  668.02423  650.00000    9.81660    0.00000
 8509.50000    0.07642    0.19998    0.76806    0.10000  627.39447  650.00000    9.71351    0.00000
 8510.00000    0.10163    0.26001    0.38808    0.10000  306.75333  650.00000   11.18245    0.00000
 8510.50000    0.11695    0.48992    0.45061    0.10000   97.34160  650.00000   15.40448    0.00000
 8511.00000    0.15770    1.03988    0.25899    0.10000  135.65649  650.00000   18.50278    0.00000
 8511.50000    0.18557    1.60021    0.17644    0.10000  145.75775  650.00000   20.94724    0.00000
 8512.00000    0.21241    2.02941    0.18339    0.10000  103.03313  650.00000   20.31642    0.92435
 8512.50000    0.21501    2.45101    0.18998    0.10000   94.15451  650.00000   19.20740    2.29383
 8513.00000    0.21283    2.34029    0.17998    0.10000   98.82742  650.00000   20.05037    1.23217
 8513.50000    0.20371    1.98013    0.20017    0.10000  107.10734  650.00000   20.46811    0.00000
 8514.00000    0.21501    1.87272    0.19616    0.10000  102.80086  650.00000   19.82055    1.68068
 8514.50000    0.20415    1.80039    0.20710    0.10000  112.30078  650.00000   20.51240    0.00000
 8515.00000    0.19146    1.80177    0.18791    0.10000  144.12723  650.00000   21.48088    0.00000
 8515.50000    0.17793    1.79948    0.17564    0.10000  141.03893  650.00000   20.42864    0.00000
 8516.00000    0.18463    1.06995    0.19064    0.10000  149.05391  650.00000   21.17591    0.00000
 8516.50000    0.19232    0.50010    0.22694    0.10000  186.13965  650.00000   22.32039    0.00000
 8517.00000    0.20231    0.82992    0.26203    0.10000  189.29860  650.00000   22.73909    0.00000
 8517.50000    0.20231    0.99993    0.29559    0.10000  200.74287  650.00000   22.88541    0.00000
 8518.00000    0.18463    1.00017    0.19094    0.10000  159.24120  650.00000   21.31235    0.00000
 8518.50000    0.17286    0.92080    0.20092    0.10000  162.50966  650.00000   19.54729    0.00000
 8519.00000    0.15770    0.67012    0.21385    0.10000  177.48946  650.00000   17.61751    0.00000
 8519.50000    0.16677    0.63011    0.21151    0.10000  166.43988  650.00000   18.95089    0.00000
 8520.00000    0.17600    1.71995    0.20837    0.10000  136.11888  650.00000   20.24245    0.00000
 8520.50000    0.18980    2.80018    0.15463    0.10000  117.48869  650.00000   21.50525    0.00000
 8521.00000    0.18928    1.57052    0.18783    0.10000  146.82588  650.00000   21.32511    0.00000
 8521.50000    0.16330    0.51011    0.21319    0.10000  168.63635  650.00000   18.54600    0.00000
 8522.00000    0.14504    0.39005    0.24309    0.10000  172.19028  650.00000   16.59968    0.00000
 8522.50000    0.13656    0.28002    0.32948    0.10000  155.83504  650.00000   16.02299    0.00000
 8523.00000    0.15770    0.45007    0.21132    0.10000  183.55388  650.00000   17.31467    0.00000
 8523.50000    0.17286    0.92028    0.20094    0.10000  162.51653  650.00000   19.54698    0.00000
 8524.00000    0.18577    1.06951    0.19356    0.10000  149.85522  650.00000   21.25945    0.00000
 8524.50000    0.17430    1.12912    0.21580    0.10000  149.70348  650.00000   19.99281    0.00000
 8525.00000    0.14682    0.71009    0.25505    0.10000  164.44183  650.00000   16.59401    0.00000
 8525.50000    0.13137    0.35994    0.33725    0.10000  147.96513  650.00000   15.88842    0.00000
 8526.00000    0.11695    0.34990    0.34412    0.10000  146.59044  650.00000   15.28005    0.00000
 8526.50000    0.10639    0.34999    0.36929    0.10000  116.52171  650.00000   13.47261    0.00000
 8527.00000    0.10639    0.28000    0.44483    0.10000  198.73219  650.00000   14.03114    0.00000
 8527.50000    0.10146    0.25003    0.38892    0.10000  309.81586  650.00000   11.17051    0.00000
 8528.00000    0.10146    0.25001    0.38892    0.10000  309.81985  650.00000   11.17051    0.00000
 8528.50000    0.11357    0.29001    0.34481    0.10000  149.51138  650.00000   15.25090    0.00000
 8529.00000    0.11695    0.41000    0.34661    0.10000  142.08722  650.00000   15.20385    0.00000
 8529.50000    0.13781    0.60005    0.36484    0.10000  144.46240  650.00000   16.32085    0.00000
 8530.00000    0.13781    1.12981    0.45045    0.10000  100.96291  650.00000   15.66958    0.00000
 8530.50000    0.13885    1.19994    0.46739    0.10000   92.93473  650.00000   16.73395    0.00000
 8531.00000    0.14470    0.80009    0.34355    0.10000  129.78929  650.00000   16.77913    0.00000
 8531.50000    0.15631    0.50016    0.21064    0.10000  182.74426  650.00000   17.31253    0.00000
 8532.00000    0.15770    0.68004    0.24619    0.10000  145.86240  650.00000   18.06605    0.00000
 8532.50000    0.15770    0.80003    0.25154    0.10000  141.65834  650.00000   18.24050    0.00000
 8533.00000    0.15501    0.61009    0.21489    0.10000  179.59857  650.00000   17.42118    0.00000
 8533.50000    0.14615    0.43998    0.22351    0.10000  177.51694  650.00000   16.62644    0.00000
 8534.00000    0.13350    0.33002    0.33838    0.10000  148.03511  650.00000   15.99566    0.00000
 8534.50000    0.11793    0.21998    0.38896    0.10000  226.95677  650.00000   15.01970    0.00000
 8535.00000    0.10639    0.13001    0.36827    0.10000  382.51083  650.00000   13.38883    0.00000
 8535.50000    0.08670    0.08000    1.46304    0.10000  406.83948  650.00000   13.10114    0.00000
