~Version ---------------------------------------------------
VERS.   2.0 : CWLS log ASCII Standard -VERSION 2.0
WRAP.    NO : One line per depth step
DLM . SPACE : Column Data Section Delimiter
~Well ------------------------------------------------------
STRT.FEET  8456.0 : START DEPTH
STOP.FEET  8628.0 : STOP DEPTH
STEP.FEET 0.50000 : STEP
NULL.    -9999.25 : NULL VALUE
COMP.             : COMPANY
WELL.       HW-26 : 
FLD .       COSTA : 
LOC .             : LOCATION
PROV.             : PROVINCE
CNTY.             : COUNTY
STAT.             : STATE
CTRY.             : COUNTRY
SRVC.             : SERVICE COMPANY
DATE.             : DATE
UWI .    12345678 : 
API .       HW-26 : 
~Curve Information -----------------------------------------
DEPT.FEET  : 
PHIT.V/V   : 
PERM.MD    : 
G1  .      : 
G2  .      : 
PD1 .PSI   : 
PD2 .PSI   : 
BV1 .%     : 
BV2 .%     : 
~Params ----------------------------------------------------
~Other -----------------------------------------------------
~ASCII -----------------------------------------------------
# ...
 8576.00000    0.13204    0.31001    0.33461    0.10000  152.53746  650.00000   15.90555    0.00000
 8576.50000    0.13460    0.27000    0.32936    0.10000  158.70154  650.00000   15.94748    0.00000
 8577.00000    0.15573    0.46000    0.20779    0.10000  184.52072  650.00000   17.22810    0.00000
 8577.50000    0.17399    0.70001    0.18872    0.10000  180.34479  650.00000   20.39152    0.00000
 8578.00000    0.19753    1.06004    0.26071    0.10000  185.76419  650.00000   22.42988    0.00000
 8578.50000    0.19820    1.41004    0.22731    0.10000  159.02820  650.00000   22.10474    0.00000
 8579.00000    0.21003    1.77005    0.19463    0.10000  108.53145  650.00000   20.43798    0.56540
 8579.50000    0.21216    1.94005    0.18668    0.10000  104.24857  650.00000   20.31566    0.90005
 8580.00000    0.21216    1.78000    0.19518    0.10000  106.61844  650.00000   20.22287    0.99285
 8580.50000    0.20342    1.72000    0.21438    0.10000  116.13441  650.00000   20.53619    0.00000
 8581.00000    0.19561    1.75999    0.19942    0.10000  144.52979  650.00000   21.79958    0.00000
 8581.50000    0.18577    1.80002    0.17086    0.10000  144.75613  650.00000   20.97493    0.00000
 8582.00000    0.17430    1.35002    0.22102    0.10000  135.49838  650.00000   20.29962    0.00000
 8582.50000    0.15873    0.92999    0.25439    0.10000  137.95042  650.00000   18.43624    0.00000
 8583.00000    0.13460    0.65999    0.40649    0.10000  113.42190  650.00000   15.86710    0.00000
 8583.50000    0.11672    0.38999    0.34606    0.10000  143.34923  650.00000   15.22176    0.00000
 8584.00000    0.10146    1.12479    0.47066    0.10000   57.49563  650.00000   12.27155    0.00000
 8584.50000    0.10352    0.64134    0.47798    0.10000   68.28342  650.00000   13.42490    0.00000
 8585.00000    0.11863    0.19459    0.38890    0.10000  232.25833  650.00000   15.01569    0.00000
 8585.50000    0.13781    0.21000    0.32865    0.10000  209.80312  650.00000   15.76240    0.00000
 8586.00000    0.13885    0.24000    0.31823    0.10000  168.23439  650.00000   15.97517    0.00000
 8586.50000    0.11695    0.23000    0.39080    0.10000  225.87483  650.00000   14.98902    0.00000
 8587.00000    0.11473    0.13000    0.40880    0.10000  257.33090  650.00000   14.67972    0.00000
 8587.50000    0.11561    0.14000    0.40398    0.10000  252.29948  650.00000   14.75833    0.00000
 8588.00000    0.13781    0.25000    0.32172    0.10000  164.61966  650.00000   15.98069    0.00000
 8588.50000    0.15312    0.34000    0.20609    0.10000  188.32677  650.00000   17.04181    0.00000
 8589.00000    0.15516    0.37000    0.20723    0.10000  187.15149  650.00000   17.12520    0.00000
 8589.50000    0.14524    0.38000    0.24059    0.10000  173.27446  650.00000   16.60242    0.00000
 8590.00000    0.13460    0.24000    0.32560    0.10000  166.47845  650.00000   15.89708    0.00000
 8590.50000    0.11834    0.17001    0.39196    0.10000  239.38086  650.00000   14.95923    0.00000
 8591.00000    0.11695    0.18000    0.39448    0.10000  237.91702  650.00000   14.91922    0.00000
 8591.50000    0.11672    0.19000    0.39409    0.10000  235.44116  650.00000   14.92723    0.00000
 8592.00000    0.12870    0.27001    0.33193    0.10000  159.74940  650.00000   15.75068    0.00000
 8592.50000    0.14470    0.37000    0.25359    0.10000  169.52887  650.00000   16.58543    0.00000
 8593.00000    0.15717    0.54000    0.21259    0.10000  181.05553  650.00000   17.41064    0.00000
 8593.50000    0.15979    0.71000    0.21266    0.10000  166.78734  650.00000   18.59884    0.00000
 8594.00000    0.15717    0.67000    0.21428    0.10000  177.63611  650.00000   17.59462    0.00000
 8594.50000    0.15505    0.60000    0.21454    0.10000  179.88567  650.00000   17.40754    0.00000
 8595.00000    0.12870    0.46000    0.33616    0.10000  145.11496  650.00000   15.65535    0.00000
 8595.50000    0.11586    0.32999    0.34441    0.10000  147.50198  650.00000   15.26880    0.00000
 8596.00000    0.10146    0.20000    0.41360    0.10000  362.41003  650.00000   12.57495    0.00000
 8596.50000    0.11038    0.07000    0.40515    0.10000  390.45956  650.00000   13.23022    0.00000
 8597.00000    0.11863    0.16000    0.39238    0.10000  242.17580  650.00000   14.95009    0.00000
 8597.50000    0.13781    0.25000    0.32172    0.10000  164.62000  650.00000   15.98069    0.00000
 8598.00000    0.12934    0.30000    0.33343    0.10000  155.35449  650.00000   15.78389    0.00000
 8598.50000    0.11695    0.33000    0.34327    0.10000  148.25829  650.00000   15.30386    0.00000
 8599.00000    0.10146    0.23000    0.41037    0.10000  356.41211  650.00000   12.59290    0.00000
 8599.50000    0.07350    0.10000    1.99582    0.10000  627.41333  650.00000   13.83198    0.00000
 8600.00000    0.05886    0.07000    2.59038    0.10000  625.63971  650.00000   15.76931    0.00000
 8600.50000    0.05635    0.04400    2.99326    0.10000  558.84906  650.00000   16.43480    0.00000
 8601.00000    0.05635    0.04350    3.00289    0.10000  556.61212  650.00000   16.46053    0.00000
 8601.50000    0.05852    0.11437    2.12926    0.10000  687.61810  650.00000   14.18088    0.00000
 8602.00000    0.05808    0.15848    1.78761    0.10000  719.63129  650.00000   12.94220    0.00000
 8602.50000    0.07104    0.32745    0.62255    0.10000  562.62885  650.00000    8.70723    0.00000
 8603.00000    0.08717    0.82997    0.40775    0.10000   53.20538  650.00000    9.70694    0.00000
 8603.50000    0.08507    0.42999    0.39483    0.10000  223.44333  650.00000    8.50793    0.00000
 8604.00000    0.07383    0.25001    0.66828    0.10000  566.58966  650.00000    8.94297    0.00000
 8604.50000    0.07600    0.33002    0.38063    0.10000  309.23660  650.00000    8.10680    0.00000
 8605.00000    0.07258    0.25001    0.66058    0.10000  576.94092  650.00000    8.90767    0.00000
 8605.50000    0.08877    0.18001    0.48485    0.10000  350.01532  650.00000    9.20646    0.00000
 8606.00000    0.11038    0.19000    0.40976    0.10000  242.27782  650.00000   14.66615    0.00000
 8606.50000    0.12960    0.20000    0.34204    0.10000  218.95354  650.00000   15.53286    0.00000
 8607.00000    0.15516    0.38000    0.20617    0.10000  187.06831  650.00000   17.12757    0.00000
 8607.50000    0.16677    0.63001    0.21151    0.10000  166.44107  650.00000   18.95076    0.00000
 8608.00000    0.17516    0.83001    0.18719    0.10000  176.71690  650.00000   20.41741    0.00000
 8608.50000    0.17600    1.02002    0.17132    0.10000  159.73653  650.00000   20.31163    0.00000
 8609.00000    0.17600    1.15998    0.16915    0.10000  157.20772  650.00000   20.25929    0.00000
 8609.50000    0.17600    1.29998    0.18651    0.10000  141.68967  650.00000   20.47627    0.00000
 8610.00000    0.17600    1.29999    0.18651    0.10000  141.68967  650.00000   20.47627    0.00000
 8610.50000    0.17600    1.26999    0.18760    0.10000  141.65643  650.00000   20.50399    0.00000
 8611.00000    0.17430    1.20000    0.21299    0.10000  148.94777  650.00000   19.99064    0.00000
 8611.50000    0.17430    1.13000    0.21577    0.10000  149.69347  650.00000   19.99279    0.00000
 8612.00000    0.15291    0.83000    0.25776    0.10000  141.88567  650.00000   18.09394    0.00000
 8612.50000    0.13491    0.43000    0.34229    0.10000  141.19930  650.00000   16.05108    0.00000
 8613.00000    0.11895    0.33999    0.34163    0.10000  148.72011  650.00000   15.36025    0.00000
 8613.50000    0.11834    0.20125    0.38913    0.10000  230.88162  650.00000   15.01323    0.00000
 8614.00000    0.11793    0.22450    0.38872    0.10000  225.98012  650.00000   15.02467    0.00000
 8614.50000    0.11793    0.22450    0.38872    0.10000  225.98012  650.00000   15.02467    0.00000
 8615.00000    0.11834    0.20125    0.38913    0.10000  230.88162  650.00000   15.01323    0.00000
 8615.50000    0.09324    0.13000    0.38089    0.10000  406.10480  650.00000   11.38072    0.00000
