~Version ---------------------------------------------------
VERS.   2.0 : CWLS log ASCII Standard -VERSION 2.0
WRAP.    NO : One line per depth step
DLM . SPACE : Column Data Section Delimiter
~Well ------------------------------------------------------
STRT.FEET  8456.0 : START DEPTH
STOP.FEET  8628.0 : STOP DEPTH
STEP.FEET 0.50000 : STEP
NULL.    -9999.25 : NULL VALUE
COMP.             : COMPANY
WELL.       HW-26 : 
FLD .       COSTA : 
LOC .             : LOCATION
PROV.             : PROVINCE
CNTY.             : COUNTY
STAT.             : STATE
CTRY.             : COUNTRY
SRVC.             : SERVICE COMPANY
DATE.             : DATE
UWI .    12345678 : 
API .       HW-26 : 
~Curve Information -----------------------------------------
DEPT.FEET  : 
PHIT.V/V   : 
PERM.MD    : 
G1  .      : 
G2  .      : 
PD1 .PSI   : 
PD2 .PSI   : 
BV1 .%     : 
BV2 .%     : 
~Params ----------------------------------------------------
~Other -----------------------------------------------------
~ASCII -----------------------------------------------------
 8456.00000    0.03558    0.48996    1.33492    0.10000  814.79144  650.00000   11.69288    0.00000
 8456.50000    0.03557    0.80973    0.99199    0.10000  556.85333  650.00000    9.81016    0.00000
 8457.00000    0.03196    0.28000    2.68236    0.10000 1600.90894  650.00000   18.64500    0.00000
 8457.50000    0.03196    0.01000    2.76385    0.10000  273.02002  650.00000   13.17940    0.00000
 8458.00000    0.03196    0.01000    2.76381    0.10000  273.02118  650.00000   13.17927    0.00000
 8458.50000    0.03261    0.08255    2.92851    0.10000  656.15430  650.00000   15.96818    0.00000
 8459.00000    0.02209    0.04155    3.49883    0.10000  450.49869  650.00000   17.08967    0.00000
 8459.50000    0.02209    0.04140    3.50201    0.10000  449.50153  650.00000   17.09669    0.00000
 8460.00000    0.02209    0.03952    3.54203    0.10000  436.90402  650.00000   17.18439    0.00000
 8460.50000    0.02209    0.03964    3.53953    0.10000  437.69305  650.00000   17.17896    0.00000
 8461.00000    0.02212    0.03325    3.67795    0.10000  392.00516  650.00000   17.46659    0.00000
 8461.50000    0.02209    0.04126    3.50489    0.10000  448.59875  650.00000   17.10303    0.00000
 8462.00000    0.00871    0.05770    2.96688    0.10000  557.19641  650.00000   15.56069    0.00000
 8462.50000    0.00618    7.45264    1.84388    0.10000 1738.06775  650.00000   16.75284    0.00000
 8463.00000    0.00618   12.56069    1.84016    0.10000 2060.03687  650.00000   16.79185    0.00000
 8463.50000    0.00618   15.87698    1.72321    0.10000 2205.28271  650.00000   16.98321    0.00000
 8464.00000    0.00618    9.47500    1.84440    0.10000 1880.72314  650.00000   16.78514    0.00000
 8464.50000    0.00935    2.99637    1.09107    0.10000 1596.60095  650.00000    9.81530    0.00000
 8465.00000    0.00268    1.07863    1.08177    0.10000  617.05640  650.00000    9.74706    0.00000
 8465.50000    0.00268    0.56971    1.14426    0.10000  705.22937  650.00000   10.81006    0.00000
 8466.00000    0.00871    0.32948    2.31861    0.10000  796.14960  650.00000   14.93894    0.00000
 8466.50000    0.00618    0.08982    2.78763    0.10000  643.40778  650.00000   15.31174    0.00000
 8467.00000    0.00618   86.93904    1.68135    0.10000 2496.80615  650.00000   16.80498    0.00000
 8467.50000    0.00526  218.60271    2.02136    0.10000 2250.56274  650.00000   19.39836    0.00000
 8468.00000    0.00215  241.98560    2.03365    0.10000 2202.95093  650.00000   19.49100    0.00000
 8468.50000    0.00215  166.96793    1.70357    0.10000 2281.41406  650.00000   17.00707    0.00000
 8469.00000    0.00176   90.11307    1.69394    0.10000 2397.53589  650.00000   16.89935    0.00000
 8469.50000    0.00268   12.47289    1.84380    0.10000 2015.49719  650.00000   16.81003    0.00000
 8470.00000    0.00176    0.17978    2.58222    0.10000  733.52203  650.00000   14.98562    0.00000
 8470.50000    0.00215    0.23868    2.45689    0.10000  740.19257  650.00000   15.25477    0.00000
 8471.00000    0.00198    0.17005    2.59531    0.10000  728.33740  650.00000   15.00808    0.00000
 8471.50000    0.00198    0.10006    2.73381    0.10000  650.71405  650.00000   15.15021    0.00000
 8472.00000    0.00198    1.67634    1.01330    0.10000  564.30469  650.00000    9.31753    0.00000
 8472.50000    0.00176    2.78631    1.12658    0.10000 1641.40466  650.00000   10.02416    0.00000
 8473.00000    0.00176    1.49832    1.02936    0.10000  576.90747  650.00000    9.41943    0.00000
 8473.50000    0.00293    0.22003    2.48511    0.10000  743.16174  650.00000   15.36129    0.00000
 8474.00000    0.01104    0.17995    2.57309    0.10000  810.28119  650.00000   15.26555    0.00000
 8474.50000    0.03932    0.32996    1.50625    0.10000  963.65930  650.00000   12.68764    0.00000
 8475.00000    0.05824    0.24032    0.59101    0.10000  697.97314  650.00000    8.56820    0.00000
 8475.50000    0.07181    0.18006    0.77148    0.10000  653.89941  650.00000    9.70796    0.00000
 8476.00000    0.08863    0.29005    0.47064    0.10000  320.28433  650.00000    9.13725    0.00000
 8476.50000    0.09657    3.12955    0.51275    0.10000   57.66666  650.00000   13.05215    0.00000
 8477.00000    0.07642   11.23882    1.90849    0.10000   19.80429  650.00000   20.08021    0.00000
 8477.50000    0.05808   11.07866    1.83153    0.10000  765.07318  650.00000   16.63092    0.00000
 8478.00000    0.01929    6.67863    1.84834    0.10000 1617.27637  650.00000   16.76089    0.00000
 8478.50000    0.00341    2.26820    1.14454    0.10000 1571.42847  650.00000   10.10253    0.00000
 8479.00000    0.00268    0.06088    2.87366    0.10000  568.55444  650.00000   15.26310    0.00000
 8479.50000    0.00215    0.97797    1.09820    0.10000  629.86267  650.00000    9.84755    0.00000
 8480.00000    0.00198    3.20486    1.11279    0.10000 1683.12732  650.00000    9.96100    0.00000
 8480.50000    0.00198    6.25274    1.84249    0.10000 1649.23987  650.00000   16.72344    0.00000
 8481.00000    0.00198    4.68750    1.08548    0.10000 1824.06152  650.00000    9.85651    0.00000
 8481.50000    0.00133    0.82826    1.12550    0.10000  651.15149  650.00000   10.01397    0.00000
 8482.00000   -0.00275   15.61355    1.84770    0.10000 2060.37622  650.00000   16.84974    0.00000
 8482.50000   -0.00355   33.92493    1.71351    0.10000 2278.79858  650.00000   16.98531    0.00000
 8483.00000    0.00389   13.63267    1.84094    0.10000 2081.48779  650.00000   16.80318    0.00000
 8483.50000    0.02212    0.30984    2.35604    0.10000 1053.15149  650.00000   15.83544    0.00000
 8484.00000    0.04436    0.52983    1.00275    0.10000  566.60364  650.00000    9.74556    0.00000
 8484.50000    0.08877    0.75934    0.29319    0.10000  162.12170  650.00000    9.68144    0.00000
 8485.00000    0.11863    0.65993    0.46152    0.10000   92.99267  650.00000   15.31236    0.00000
 8485.50000    0.12044    0.42998    0.34311    0.10000  143.17139  650.00000   15.31160    0.00000
 8486.00000    0.11834    0.26993    0.33941    0.10000  155.09299  650.00000   15.41140    0.00000
 8486.50000    0.11695    0.11001    0.40748    0.10000  262.91968  650.00000   14.69852    0.00000
 8487.00000    0.11834    0.63009    0.45965    0.10000   93.74289  650.00000   15.32684    0.00000
 8487.50000    0.15631    0.93986    0.25808    0.10000  138.09421  650.00000   18.35197    0.00000
 8488.00000    0.17068    0.83058    0.20494    0.10000  163.81543  650.00000   19.37839    0.00000
 8488.50000    0.17431    0.77056    0.18769    0.10000  178.43727  650.00000   20.39816    0.00000
 8489.00000    0.16287    1.00005    0.24859    0.10000  136.16690  650.00000   18.67313    0.00000
 8489.50000    0.14504    1.12630    0.44620    0.10000   99.56215  650.00000   16.83796    0.00000
 8490.00000    0.13137    0.58999    0.41130    0.10000  111.45826  650.00000   15.83474    0.00000
 8490.50000    0.11695    0.17997    0.39448    0.10000  237.92674  650.00000   14.91915    0.00000
 8491.00000    0.12960    0.38999    0.33641    0.10000  147.59087  650.00000   15.77687    0.00000
 8491.50000    0.14654    0.60010    0.24995    0.10000  167.73627  650.00000   16.59668    0.00000
 8492.00000    0.15770    0.80003    0.25154    0.10000  141.65819  650.00000   18.24051    0.00000
 8492.50000    0.15873    1.00995    0.25645    0.10000  136.21187  650.00000   18.51488    0.00000
 8493.00000    0.16400    1.28000    0.34452    0.10000  116.72300  650.00000   19.12705    0.00000
 8493.50000    0.16400    1.49996    0.35698    0.10000  112.96191  650.00000   19.18568    0.00000
 8494.00000    0.16400    1.49987    0.35697    0.10000  112.96346  650.00000   19.18567    0.00000
 8494.50000    0.17068    1.41024    0.32150    0.10000  124.61657  650.00000   20.10702    0.00000
 8495.00000    0.15873    0.85023    0.25215    0.10000  139.90767  650.00000   18.34722    0.00000
 8495.50000    0.15501    0.64989    0.21588    0.10000  178.54231  650.00000   17.47881    0.00000
